City,Cloudiness,Country,Date,Humidity,Lat,Lng,Max Temp,Wind Speed
norman wells,75,CA,1559173192,66,65.28,-126.83,48.2,5.82
tabursuq,40,TN,1559173192,77,36.46,9.25,60.8,4.7
severo-kurilsk,100,RU,1559173193,93,50.68,156.12,39.66,36.04
litovko,100,RU,1559173193,98,49.24,135.18,46.52,3.4
hilo,1,US,1559173194,54,19.71,-155.08,84.2,9.17
emerald,40,AU,1559173194,39,-23.53,148.16,64.4,11.41
saint-philippe,1,CA,1559173194,67,45.36,-73.48,62.01,9.17
bluff,6,AU,1559173194,24,-23.58,149.07,69.85,9.48
punta arenas,0,CL,1559173195,86,-53.16,-70.91,41.0,10.29
eldoret,0,KE,1559173052,93,0.52,35.27,59.0,2.24
tateyama,0,JP,1559173195,37,36.66,137.31,75.99,5.82
mataura,100,NZ,1559173195,94,-46.19,168.86,46.99,6.67
puerto ayora,40,EC,1559173196,78,-0.74,-90.35,77.0,19.46
tiksi,87,RU,1559173196,96,71.64,128.87,32.08,9.15
port alfred,17,ZA,1559173196,83,-33.59,26.89,53.7,8.77
rikitea,78,PF,1559173197,81,-23.12,-134.97,77.39,19.1
busselton,14,AU,1559173197,53,-33.64,115.35,52.0,31.74
markova,0,RU,1559173197,48,52.21,104.21,41.0,4.47
ushuaia,20,AR,1559173197,90,-54.81,-68.31,41.0,24.16
new norfolk,75,AU,1559173198,65,-42.78,147.06,46.0,9.17
westlock,1,CA,1559173198,21,54.15,-113.85,89.01,12.75
tuatapere,100,NZ,1559173198,94,-46.13,167.69,46.99,26.26
kamenka,4,RU,1559173199,65,53.19,44.05,69.01,3.6
nkhotakota,15,MW,1559173199,80,-12.93,34.3,59.5,3.69
sabang,98,PH,1559173200,76,13.72,123.58,84.32,5.73
constitucion,5,MX,1559173200,6,23.99,-104.67,87.8,11.41
butaritari,100,KI,1559173200,79,3.07,172.79,83.38,11.07
georgiyevka,0,RU,1559173201,88,52.25,40.45,63.04,5.39
vaini,83,IN,1559173201,87,15.34,74.49,79.51,0.63
muriwai beach,54,NZ,1559173201,72,-36.82,174.45,66.99,10.29
hithadhoo,100,MV,1559173202,74,-0.6,73.08,83.97,8.46
coroneo,90,MX,1559173202,28,20.2,-100.37,86.0,6.93
acajutla,98,SV,1559173202,85,13.59,-89.83,75.0,3.76
safonovo,99,RU,1559173202,97,55.11,33.24,59.33,5.21
hobart,75,AU,1559173203,65,-42.88,147.33,46.0,9.17
cap-aux-meules,20,CA,1559173203,61,47.38,-61.86,50.0,8.05
broome,100,GB,1559173203,100,52.47,1.45,57.99,10.29
pisco,0,PE,1559173204,30,-13.71,-76.2,71.6,11.41
arraial do cabo,0,BR,1559173204,94,-22.97,-42.02,69.8,3.36
dunedin,7,NZ,1559173204,68,-45.87,170.5,55.99,5.01
georgetown,40,GY,1559173100,88,6.8,-58.16,78.8,9.17
didsbury,5,CA,1559173205,18,51.66,-114.14,82.0,6.93
castro,20,CL,1559173206,81,-42.48,-73.76,44.6,2.24
ancud,20,CL,1559173207,81,-41.87,-73.83,44.6,2.24
havre,1,US,1559173207,19,48.55,-109.68,78.8,9.17
ribeira grande,77,PT,1559173207,89,38.52,-28.7,65.89,15.82
mar del plata,0,AR,1559173207,59,-46.43,-67.52,34.87,1.23
lompoc,90,US,1559173208,77,34.64,-120.46,73.99,8.05
avarua,72,CK,1559173068,69,-21.21,-159.78,78.8,8.05
rodrigues alves,40,BR,1559173208,88,-7.74,-72.65,82.4,0.98
kulhudhuffushi,100,MV,1559173209,79,6.62,73.07,84.75,16.82
uddevalla,18,SE,1559173209,93,58.35,11.94,54.0,6.93
iqaluit,90,CA,1559173209,100,63.75,-68.52,35.6,12.75
hermanus,100,ZA,1559173209,82,-34.42,19.24,66.0,1.99
hasaki,20,JP,1559173210,59,35.73,140.83,71.01,3.36
yulara,0,AU,1559173210,66,-25.24,130.99,53.6,8.05
malinovoye ozero,84,RU,1559173211,61,51.68,79.77,64.52,6.67
segou,12,SN,1559173211,24,12.41,-12.29,92.72,8.88
kodiak,40,US,1559173211,56,39.95,-94.76,72.0,6.93
leningradskiy,98,RU,1559173212,85,69.38,178.42,32.69,16.22
qaanaaq,1,GL,1559173212,64,77.48,-69.36,32.17,4.0
cabo san lucas,5,MX,1559173076,53,22.89,-109.91,84.99,11.41
christchurch,9,NZ,1559173212,52,-43.53,172.64,68.0,11.41
deputatskiy,22,RU,1559173213,64,69.3,139.9,45.89,12.1
kapaa,1,US,1559173213,74,22.08,-159.32,84.2,10.29
narsaq,5,GL,1559173213,20,60.91,-46.05,53.6,16.11
naze,100,NG,1559173214,96,5.43,7.07,74.06,2.91
thompson,75,CA,1559173214,27,55.74,-97.86,53.6,5.82
piacabucu,40,BR,1559173214,81,-10.41,-36.43,78.7,6.42
pevek,1,RU,1559173215,85,69.7,170.27,31.18,6.85
invermere,69,CA,1559173215,21,50.51,-116.03,82.99,3.0
isangel,75,VU,1559173215,65,-19.55,169.27,82.4,8.72
de-kastri,100,RU,1559173048,86,51.48,140.77,49.45,5.61
jamestown,0,AU,1559173216,62,-33.21,138.6,48.53,6.82
mahebourg,20,MU,1559173216,64,-20.41,57.7,73.4,14.99
adrar,0,DZ,1559173217,16,27.87,-0.29,87.8,5.82
russell,75,AR,1559173217,81,-33.01,-68.8,48.2,4.7
hede,8,SE,1559173217,61,60.45,15.49,46.4,8.05
srisailam,76,IN,1559173218,50,16.07,78.87,89.79,12.75
lebu,97,ET,1559173218,65,8.96,38.73,57.82,0.63
ous,0,RU,1559173218,82,60.91,61.52,43.91,5.1
nome,40,US,1559173219,58,30.04,-94.42,84.99,11.41
shitanjing,83,CN,1559173219,20,39.23,106.34,66.0,5.99
aasiaat,28,GL,1559173219,70,68.71,-52.87,38.15,6.02
velyka pysarivka,1,UA,1559173220,84,50.43,35.48,59.68,7.23
kavaratti,100,IN,1559173220,74,10.57,72.64,85.72,11.99
moose factory,92,CA,1559173220,75,51.26,-80.61,42.8,9.17
bar harbor,90,US,1559173219,93,44.39,-68.2,55.4,6.93
dvorichna,0,UA,1559173221,85,49.85,37.68,62.01,5.46
palmas,0,BR,1559173221,74,-10.18,-48.33,78.8,4.7
anadyr,0,RU,1559173221,65,64.73,177.51,46.4,2.24
hastings,35,NZ,1559173222,51,-39.64,176.84,67.77,10.2
kjollefjord,100,NO,1559173222,85,70.95,27.35,41.55,33.35
minas,75,UY,1559173223,76,-34.38,-55.24,51.8,5.82
albany,90,US,1559173212,67,42.65,-73.75,62.6,3.36
xining,98,CN,1559173223,69,36.62,101.77,43.6,3.44
paamiut,3,GL,1559172964,92,61.99,-49.67,35.09,15.5
wajima,0,JP,1559173224,55,37.4,136.9,64.4,6.93
carnarvon,32,ZA,1559173224,33,-30.97,22.13,57.06,8.88
lingyuan,100,CN,1559173224,43,41.24,119.4,63.2,10.07
tuktoyaktuk,40,CA,1559173225,64,69.44,-133.03,39.2,14.99
haines junction,15,CA,1559173225,33,60.75,-137.51,58.41,8.75
chicama,40,PE,1559173226,82,-7.84,-79.15,68.0,12.75
airai,0,TL,1559173226,59,-8.93,125.41,79.31,10.07
katsuura,20,JP,1559173226,55,33.93,134.5,66.99,5.82
fuling,100,CN,1559173227,94,29.71,107.39,62.9,1.83
zhengjiatun,97,CN,1559173227,33,43.51,123.51,66.05,15.84
banda aceh,100,ID,1559172931,78,5.56,95.32,83.94,9.62
hami,92,CN,1559173228,15,42.84,93.51,67.72,3.44
nikolskoye,0,RU,1559173228,81,59.7,30.79,48.99,8.95
aklavik,75,CA,1559173228,70,68.22,-135.01,44.6,9.17
galle,75,US,1559173229,62,29.74,-97.91,88.0,18.34
lagoa,0,PT,1559173229,68,37.14,-8.45,69.01,6.93
riyadh,0,SA,1559173096,12,24.63,46.72,86.0,2.24
vaitape,8,PF,1559173230,72,-16.52,-151.75,81.83,8.23
cape town,0,ZA,1559173209,81,-33.93,18.42,69.01,5.82
saskylakh,81,RU,1559173230,75,71.97,114.09,29.0,8.5
sola,75,NO,1559173231,87,58.89,5.65,48.99,13.87
geraldton,75,CA,1559173231,25,49.72,-86.95,66.2,11.41
ilulissat,20,GL,1559173231,86,69.22,-51.1,37.4,3.36
batemans bay,0,AU,1559173231,49,-35.71,150.18,53.01,3.0
bonavista,4,CA,1559173232,87,48.65,-53.11,39.0,1.01
ahipara,23,NZ,1559173232,100,-35.17,173.16,63.0,23.53
sao joao da barra,0,BR,1559173233,83,-21.64,-41.05,75.2,6.93
bacolod,42,PH,1559173233,74,10.68,122.95,84.71,7.81
barrow,98,AR,1559173234,76,-38.31,-60.23,45.33,5.26
dunmore east,100,IE,1559173234,85,52.15,-6.99,57.99,5.01
rawson,99,AR,1559173234,57,-43.3,-65.11,42.43,6.76
healdsburg,20,US,1559173234,53,38.61,-122.87,80.01,14.99
varberg,71,SE,1559173235,75,57.11,12.25,52.0,6.93
carutapera,72,BR,1559173235,80,-1.2,-46.02,79.78,6.62
vardo,75,US,1559173235,61,39.62,-77.74,82.4,8.05
santa fe,100,AR,1559173236,72,-31.62,-60.7,64.0,1.99
toowoomba,0,AU,1559173236,46,-27.56,151.95,60.01,10.29
saint george,20,GR,1559173237,46,39.45,22.34,71.6,5.82
nanortalik,0,GL,1559173237,74,60.14,-45.24,38.61,3.78
malmyzh,49,RU,1559173237,94,56.52,50.68,61.47,7.38
souillac,0,FR,1559173238,82,45.6,-0.6,59.0,4.7
ambalavao,20,MG,1559173238,90,-21.83,46.94,59.44,1.68
aleksandrovskiy zavod,100,RU,1559173238,80,50.92,117.94,44.5,13.71
bredasdorp,96,ZA,1559173239,93,-34.53,20.04,57.99,4.07
sal rei,40,CV,1559173239,78,16.18,-22.92,73.4,11.41
los llanos de aridane,2,ES,1559173239,72,28.66,-17.92,66.2,13.87
rocha,79,UY,1559173239,81,-34.48,-54.34,48.26,3.6
saint anthony,40,US,1559173240,32,43.97,-111.68,69.8,6.93
bereda,0,ES,1559173240,87,43.27,-7.54,59.0,2.24
kralendijk,40,BQ,1559173240,78,12.15,-68.27,82.4,17.22
chirongui,20,YT,1559173241,83,-12.93,45.15,77.0,5.82
brae,24,GB,1559173241,67,60.4,-1.35,41.0,5.82
port elizabeth,90,US,1559173241,83,39.31,-74.98,84.99,19.46
abha,0,SA,1559173242,51,18.22,42.5,66.2,5.48
tilichiki,1,RU,1559173242,36,60.47,166.1,62.97,4.63
sorland,100,NO,1559173242,74,67.67,12.69,42.92,29.51
bethel,75,US,1559173243,44,60.79,-161.76,60.8,17.22
vanavara,97,RU,1559173243,79,60.35,102.28,49.49,5.06
verkhoyansk,0,RU,1559173243,46,67.55,133.39,50.91,9.69
grindavik,0,IS,1559173244,70,63.84,-22.43,45.0,10.29
esperance,20,TT,1559173244,74,10.24,-61.45,82.99,10.29
horn,0,AT,1559173245,76,48.66,15.66,54.0,10.29
lasa,0,CY,1559173245,49,34.92,32.53,78.8,4.7
shimoda,20,JP,1559172996,64,34.7,138.93,71.01,11.41
popondetta,39,PG,1559173245,48,-8.77,148.24,80.56,3.49
tura,2,IN,1559173003,86,25.52,90.21,77.91,7.31
atuona,21,PF,1559173246,80,-9.8,-139.03,82.1,16.67
mata,75,CU,1559173246,94,22.63,-79.93,75.2,2.24
zhuanghe,93,CN,1559173247,60,39.7,122.97,71.01,3.0
fortuna,75,ES,1559173247,68,38.18,-1.13,66.2,5.82
tabou,100,CI,1559173247,96,4.42,-7.36,75.69,4.18
masallatah,0,LY,1559173251,51,32.62,14.0,70.06,14.41
kumluca,96,TR,1559173251,33,36.37,30.29,61.02,3.36
pecos,1,US,1559173251,6,31.42,-103.49,91.4,17.22
cidreira,41,BR,1559173252,79,-30.17,-50.22,61.08,5.75
chokurdakh,88,RU,1559173252,82,70.62,147.9,36.83,15.19
hamilton,90,CA,1559173137,87,43.26,-79.87,63.0,5.82
impfondo,96,CD,1559173253,93,1.62,18.06,71.01,2.35
plouzane,90,FR,1559173253,100,48.38,-4.62,57.99,9.17
talnakh,20,RU,1559173253,81,69.49,88.39,42.8,22.37
tessalit,0,ML,1559173254,8,20.2,1.01,91.37,10.94
kaitangata,95,NZ,1559173254,83,-46.28,169.85,48.99,5.99
quatre cocos,20,MU,1559173254,64,-20.21,57.76,73.4,14.99
cherskiy,0,RU,1559173254,49,68.75,161.3,48.53,5.5
kieta,99,PG,1559173255,68,-6.22,155.63,84.79,6.6
dikson,86,RU,1559173255,91,73.51,80.55,33.74,20.4
clyde river,20,CA,1559173256,93,70.47,-68.59,33.8,8.05
laguna,5,MX,1559173147,21,27.52,-110.01,89.6,11.41
savannah bight,93,HN,1559173256,77,16.45,-85.85,84.1,7.11
ekhabi,100,RU,1559173257,98,53.51,142.97,34.35,7.58
labuhan,89,ID,1559173257,80,-2.54,115.51,80.23,1.59
soverato,75,IT,1559173258,87,38.69,16.55,59.0,6.51
upernavik,0,GL,1559173258,79,72.79,-56.15,34.22,12.5
dalbandin,20,PK,1559173258,17,28.9,64.41,83.29,9.98
bandarbeyla,100,SO,1559173258,70,9.49,50.81,81.26,15.17
poyarkovo,95,RU,1559173259,95,49.62,128.65,47.07,5.82
yanam,82,IN,1559173259,80,16.73,82.22,85.18,2.73
sayyan,91,YE,1559173259,53,15.17,44.32,73.0,2.98
salalah,40,OM,1559173260,79,17.01,54.1,86.0,6.93
yerbogachen,0,RU,1559173184,52,61.28,108.01,51.32,1.7
ambilobe,92,MG,1559173260,81,-13.19,49.05,68.17,4.47
khatanga,2,RU,1559173260,70,71.98,102.47,42.88,16.13
vila franca do campo,75,PT,1559173261,93,37.72,-25.43,64.4,5.82
basco,1,US,1559173261,74,40.33,-91.2,81.0,5.82
nishihara,1,JP,1559173261,52,35.74,139.53,78.01,5.82
tolaga bay,5,NZ,1559173262,43,-38.37,178.3,66.41,7.7
fosca,40,CO,1559173262,82,4.34,-73.94,59.0,3.36
porto novo,40,BR,1559173262,82,-23.68,-45.44,68.0,5.82
maceio,0,BR,1559173262,83,-9.67,-35.74,75.2,3.36
tanete,100,ID,1559173263,77,-3.94,119.78,81.87,18.34
itarema,9,BR,1559173263,89,-2.92,-39.92,76.9,5.23
venice,1,US,1559173264,48,27.1,-82.45,88.0,5.82
tuscaloosa,1,US,1559173264,36,33.21,-87.57,93.2,10.29
otavi,0,NA,1559173264,27,-19.64,17.34,61.2,4.97
ponta do sol,51,BR,1559173265,89,-20.63,-46.0,66.66,2.24
trelew,99,AR,1559172966,57,-43.25,-65.31,42.43,6.76
yellowknife,90,CA,1559173265,80,62.45,-114.38,33.8,12.75
sakaraha,5,MG,1559173266,80,-22.91,44.53,64.05,1.63
sitka,71,US,1559173266,56,37.17,-99.65,66.99,5.99
juneau,75,US,1559173266,42,58.3,-134.42,62.6,6.93
quesnel,1,CA,1559173267,23,52.98,-122.49,82.4,11.41
itupeva,0,BR,1559173213,73,-23.15,-47.06,73.4,6.93
west bay,75,GB,1559173267,93,50.71,-2.76,59.0,4.7
tandlianwala,0,PK,1559173267,14,31.03,73.13,92.4,6.24
saint-pierre,0,FR,1559173268,87,48.95,4.24,57.0,5.82
the valley,20,AI,1559173269,74,18.22,-63.06,80.6,13.87
port augusta,15,AU,1559173269,66,-32.49,137.76,53.6,9.17
langenhagen,0,DE,1559173269,66,52.44,9.74,53.01,3.36
petropavlovsk-kamchatskiy,90,RU,1559173270,93,53.05,158.65,44.6,8.95
balakirevo,2,RU,1559173270,94,56.51,38.84,61.3,5.97
cleveland,90,US,1559173016,72,41.51,-81.69,75.2,4.72
mosquera,40,CO,1559173271,82,4.71,-74.23,59.0,3.36
kungurtug,55,RU,1559173271,38,50.6,97.53,52.33,1.34
irpa irpa,1,BO,1559173272,39,-17.72,-66.29,66.2,9.17
nantucket,90,US,1559173272,87,41.28,-70.1,52.0,3.36
gornyy,47,RU,1559173272,75,51.76,48.54,64.28,1.36
champerico,75,MX,1559173072,41,16.38,-93.6,93.2,6.93
mount gambier,75,AU,1559173127,70,-37.83,140.78,48.2,8.05
mani,0,GR,1559173273,85,41.41,26.4,57.14,6.22
joinville,75,BR,1559173273,88,-26.3,-48.85,69.8,3.36
portland,40,US,1559173231,41,45.52,-122.67,79.0,3.36
sawakin,5,SD,1559173274,38,19.1,37.33,84.96,3.11
san patricio,46,PY,1559173274,95,-26.98,-56.83,63.26,1.1
varhaug,75,NO,1559173275,87,58.61,5.65,48.99,13.87
camacha,40,PT,1559173275,82,33.08,-16.33,68.0,14.99
batagay,1,RU,1559173050,49,67.65,134.64,50.44,10.2
alushta,0,UA,1559173275,41,44.68,34.41,64.05,3.78
srednekolymsk,92,RU,1559173276,31,67.46,153.71,61.66,16.96
saint-francois,0,FR,1559173276,93,46.42,3.91,46.4,2.33
kirando,98,TZ,1559173277,71,-7.37,30.62,77.44,15.55
moerai,4,PF,1559173277,79,-22.43,-151.33,73.59,20.38
kosonsoy,71,UZ,1559173277,32,41.25,71.55,68.0,9.17
finschhafen,59,PG,1559173277,61,-6.6,147.85,77.21,4.63
ust-maya,40,RU,1559173001,54,60.42,134.54,55.59,3.94
cabadiangan,75,PH,1559173121,74,10.45,123.98,84.2,4.7
qarqin,0,AF,1559173278,14,37.41,66.03,84.3,7.0
barao de melgaco,40,BR,1559173279,70,-16.19,-55.97,86.0,4.7
saint andrews,3,NZ,1559173279,52,-44.53,171.19,61.0,8.99
flin flon,90,CA,1559173279,47,54.77,-101.88,55.4,11.41
paita,100,PE,1559173280,90,-5.09,-81.11,67.95,16.84
grand gaube,20,MU,1559173280,64,-20.01,57.66,73.4,14.99
parintins,91,BR,1559173280,96,-2.63,-56.73,76.07,3.06
davila,75,PH,1559173280,94,18.47,120.58,78.8,3.36
miles city,1,US,1559173281,29,46.41,-105.84,75.2,4.7
lorengau,59,PG,1559173281,71,-2.02,147.27,84.28,7.56
victoria,75,BN,1559173282,88,5.28,115.24,82.4,2.24
mujiayingzi,98,CN,1559173282,44,42.12,118.78,55.9,11.18
teguldet,98,RU,1559173283,59,57.31,88.17,61.13,9.82
yuzhne,0,UA,1559173283,82,48.22,33.85,64.4,6.71
kabo,79,CF,1559173283,62,7.69,18.62,80.36,7.43
manbij,0,SY,1559173284,32,36.53,37.96,68.0,9.91
bambous virieux,20,MU,1559173284,64,-20.34,57.76,73.4,14.99
erdenet,0,MN,1559173284,48,49.03,104.04,46.9,3.42
guane,75,CU,1559173284,77,22.2,-84.09,83.89,9.84
santiago del estero,69,AR,1559173285,76,-27.8,-64.26,61.83,8.63
zahir pir,0,PK,1559173285,11,28.81,70.52,97.15,7.61
chuy,88,UY,1559173285,71,-33.69,-53.46,58.25,13.6
karpathos,81,GR,1559173286,77,35.51,27.21,68.0,18.34
henties bay,0,NA,1559173286,61,-22.12,14.28,63.4,5.41
alofi,75,NU,1559173286,74,-19.06,-169.92,80.6,11.41
novo aripuana,59,BR,1559173287,93,-5.12,-60.38,76.29,1.61
amahai,60,ID,1559173287,91,-3.31,129.0,84.99,7.31
khorixas,0,NA,1559173287,30,-20.37,14.96,67.76,2.86
pundaguitan,96,PH,1559173288,73,6.37,126.17,82.34,1.66
santa barbara,1,US,1559173288,56,34.42,-119.7,73.99,9.17
pacific grove,40,US,1559173289,67,36.62,-121.92,80.6,9.17
port hardy,20,CA,1559173289,67,50.7,-127.42,62.6,14.99
nabire,100,ID,1559173289,88,-3.36,135.5,77.12,1.9
pathein,90,MM,1559173290,81,16.78,94.73,82.28,4.83
sarti,0,GR,1559173290,73,40.1,23.98,67.22,2.66
okhotsk,100,RU,1559173290,86,59.36,143.24,44.97,5.53
san jose,100,PH,1559173291,63,15.79,120.99,85.56,4.56
vestmannaeyjar,0,IS,1559173005,61,63.44,-20.27,44.72,4.27
pointe michel,40,DM,1559173292,78,15.25,-61.38,80.6,4.7
palmer,75,AU,1559173031,87,-34.85,139.16,54.0,4.7
murree,30,PK,1559173292,46,33.91,73.39,78.01,13.27
namtsy,0,RU,1559173293,58,62.72,129.66,53.6,6.71
huilong,61,CN,1559173293,75,28.89,110.18,67.9,0.63
flinders,20,AU,1559173027,50,-34.58,150.85,53.01,19.46
komsomolskiy,34,RU,1559173294,96,67.55,63.78,23.71,8.23
nelson,32,CA,1559173162,25,49.49,-117.29,75.98,3.04
nguruka,25,TZ,1559173294,82,-5.11,31.04,65.36,2.82
kavieng,16,PG,1559173294,72,-2.57,150.8,84.21,8.66
inhambupe,2,BR,1559173295,97,-11.79,-38.36,70.46,4.18
zonguldak,0,TR,1559173295,70,41.25,31.83,68.94,6.33
barao de cocais,0,BR,1559173295,68,-19.95,-43.49,71.6,3.36
nakamura,20,JP,1559173296,55,35.17,136.87,77.0,8.05
sungairaya,100,ID,1559173296,71,0.7,108.9,84.05,6.11
hovd,20,NO,1559173296,86,63.83,10.7,45.0,6.93
kununurra,0,AU,1559173297,32,-15.77,128.74,68.0,3.36
nguru,100,NG,1559173297,35,12.88,10.45,94.54,12.59
wexford,90,US,1559173297,94,40.63,-80.06,73.0,6.46
hambantota,100,LK,1559173028,83,6.12,81.12,82.61,15.95
belaya gora,99,RU,1559173298,36,68.54,146.19,58.56,20.83
fiditi,100,NG,1559173298,91,7.71,3.92,75.79,3.2
umm lajj,26,SA,1559173298,57,25.02,37.27,88.69,7.65
muntenii de jos,75,RO,1559173299,88,46.61,27.77,63.0,2.24
comodoro rivadavia,0,AR,1559173299,74,-45.87,-67.48,35.6,1.12
touros,40,BR,1559173299,88,-5.2,-35.46,78.8,3.36
eldorado,5,MX,1559173299,46,24.32,-107.36,91.4,9.17
buala,99,SB,1559173300,75,-8.15,159.59,84.03,9.26
arlit,0,NE,1559173300,6,18.74,7.39,93.03,10.83
provideniya,75,RU,1559173301,67,64.42,-173.23,39.2,8.95
tasiilaq,0,GL,1559173301,74,65.61,-37.64,35.6,4.7
ostrovnoy,100,RU,1559173301,85,68.05,39.51,42.99,26.37
nampa,1,US,1559173302,46,43.57,-116.56,78.01,5.82
viedma,93,AR,1559173302,62,-40.81,-62.99,44.41,3.24
danciulesti,0,RO,1559173302,93,44.73,23.75,63.0,4.7
luderitz,0,NA,1559173302,51,-26.65,15.16,62.6,2.24
opuwo,0,NA,1559173303,47,-18.06,13.84,59.46,1.81
umm kaddadah,19,SD,1559173303,35,13.6,26.69,86.5,8.93
biu,100,NG,1559173304,87,10.61,12.19,76.45,4.83
ambon,90,FR,1559173304,100,47.55,-2.56,59.0,6.93
mount isa,0,AU,1559173304,54,-20.73,139.49,57.2,11.41
santa cruz,40,US,1559173306,67,36.97,-122.03,80.6,9.17
meulaboh,100,ID,1559173306,79,4.14,96.13,78.74,9.55
hit,0,IQ,1559173307,12,33.64,42.83,90.06,9.62
igarka,100,RU,1559173307,91,67.47,86.57,44.21,11.12
maitum,100,PH,1559173307,68,6.06,124.5,84.6,5.37
oistins,20,BB,1559173308,74,13.07,-59.53,82.4,13.87
edd,7,ER,1559173308,46,13.93,41.69,89.23,2.3
green river,90,US,1559173043,43,41.53,-109.47,51.8,5.82
cravo norte,83,CO,1559173308,80,6.3,-70.2,80.95,4.7
xuanhua,94,CN,1559173309,34,40.61,115.04,67.22,11.36
yarada,75,IN,1559173309,83,17.65,83.27,84.2,4.7
westport,100,IE,1559173309,93,53.8,-9.52,55.99,10.0
worland,1,US,1559173310,31,44.02,-107.96,70.0,8.05
maicao,100,CO,1559173310,78,11.38,-72.24,82.08,0.54
longhua,100,CN,1559173310,90,29.21,106.21,63.83,2.46
sibanicu,75,CU,1559173310,83,21.23,-77.53,78.8,3.36
chihuahua,5,MX,1559173311,13,28.66,-106.08,89.6,6.93
wejherowo,0,PL,1559173269,86,54.61,18.25,45.0,6.93
moree,75,AU,1559173311,62,-29.46,149.84,53.6,18.34
fenoarivo,75,MG,1559173312,93,-18.93,47.44,59.0,8.05
kimbe,76,PG,1559173312,57,-5.56,150.15,87.43,2.93
khao yoi,20,TH,1559173312,78,13.24,99.82,82.4,2.24
wilmington,75,US,1559173163,88,39.75,-75.55,73.0,13.87
ahvaz,0,IR,1559173313,30,31.32,48.68,86.0,2.24
alyangula,71,AU,1559173313,78,-13.85,136.42,75.2,6.93
martapura,100,ID,1559173314,100,-3.41,114.85,73.4,5.82
huautla,53,MX,1559173314,48,21.03,-98.29,88.17,8.66
arles,0,FR,1559173253,45,43.68,4.63,64.4,14.99
khani,0,GE,1559173315,56,41.96,42.96,68.0,4.7
sikeston,1,US,1559173225,69,36.88,-89.59,82.4,4.7
oktyabrskoye,0,RU,1559173315,48,56.73,85.44,63.0,11.18
novoagansk,24,RU,1559173316,69,61.94,76.66,38.07,15.68
longyearbyen,75,NO,1559173316,81,78.22,15.63,32.0,24.16
kaduna,96,NG,1559173316,82,10.52,7.44,75.8,6.42
kodinsk,100,RU,1559173316,82,58.6,99.18,56.0,3.29
port lincoln,75,AU,1559173317,59,-34.72,135.86,55.28,14.16
faanui,8,PF,1559173317,72,-16.48,-151.75,81.83,8.23
saldanha,33,PT,1559173318,60,41.42,-6.55,59.96,6.76
mineiros,42,BR,1559173318,73,-17.57,-52.55,72.06,5.21
mareeba,99,AU,1559173318,73,-16.99,145.42,75.99,6.93
mathathane,0,BW,1559173318,73,-22.27,28.75,57.14,6.49
miri,100,NG,1559173319,58,10.31,9.75,83.02,4.45
red bank,20,US,1559173303,36,35.12,-85.29,91.4,12.75
eureka,40,US,1559173161,87,40.8,-124.16,60.01,9.17
puksoozero,100,RU,1559173320,97,62.59,40.61,60.43,8.05
tazovskiy,93,RU,1559173047,95,67.47,78.7,33.12,15.08
vao,7,EE,1559173321,71,59.1,26.19,40.36,5.66
suntar,46,RU,1559173321,44,62.16,117.65,50.01,4.32
pangnirtung,68,CA,1559173321,69,66.15,-65.72,41.51,3.89
coquimbo,75,CL,1559173096,76,-29.95,-71.34,57.99,6.93
katangli,99,RU,1559173322,89,51.71,143.23,46.1,14.05
omboue,100,GA,1559173322,85,-1.57,9.26,77.24,10.69
ust-barguzin,55,RU,1559173062,60,53.41,109.03,42.38,4.36
inirida,100,CO,1559173323,96,3.87,-67.92,76.38,1.1
san andres,98,PH,1559173323,72,13.32,122.68,85.45,2.15
casa grande,1,US,1559173305,14,32.88,-111.76,91.99,8.05
ayan,0,TR,1559173324,77,40.67,33.6,57.64,2.39
kourou,82,GF,1559173324,94,5.16,-52.64,77.0,2.24
rusape,0,ZW,1559173324,84,-18.53,32.12,45.94,2.15
puerto del rosario,0,ES,1559173112,72,28.5,-13.86,66.2,11.41
tandil,97,AR,1559173325,74,-37.33,-59.14,48.0,3.0
kalmunai,69,LK,1559173325,90,7.42,81.82,76.41,2.15
plettenberg bay,99,ZA,1559173101,52,-34.05,23.37,62.19,5.77
ngunguru,0,NZ,1559173326,89,-35.62,174.5,64.99,8.99
silver city,1,US,1559173326,11,32.77,-108.28,75.2,11.41
acari,46,BR,1559173327,75,-6.44,-36.64,77.64,17.85
camocim,100,BR,1559173052,93,-2.9,-40.84,75.84,5.01
qaqortoq,5,GL,1559173327,20,60.72,-46.03,53.6,16.11
mayo,75,CA,1559173328,29,63.59,-135.9,66.2,6.93
galveston,1,US,1559173328,57,40.58,-86.19,79.0,2.51
manono,14,CD,1559173328,62,-7.3,27.4,71.73,2.53
cazones,5,MX,1559173329,55,20.72,-97.32,91.4,11.41
vilyuysk,2,RU,1559173329,38,63.75,121.63,53.39,5.84
berlevag,100,NO,1559173329,90,70.86,29.09,39.84,36.55
avera,1,US,1559173330,41,33.19,-82.53,96.8,5.82
kayerkan,20,RU,1559173330,81,69.35,87.76,42.8,22.37
natal,40,BR,1559173130,88,-5.81,-35.21,78.8,3.36
boa vista,100,BR,1559173205,82,2.82,-60.67,80.1,7.61
belmonte,0,PT,1559173331,47,40.36,-7.35,66.0,5.99
dali,0,CN,1559173332,62,25.6,100.24,61.73,2.51
puri,20,ID,1559173332,94,-7.54,112.45,75.2,5.82
turukhansk,100,RU,1559173332,93,65.8,87.96,49.77,12.3
hokitika,100,NZ,1559173333,86,-42.72,170.96,58.95,17.4
caravelas,0,BR,1559173333,85,-17.73,-39.27,76.49,4.9
usakos,0,NA,1559173334,19,-22.0,15.59,66.64,6.82
port hedland,0,AU,1559173334,40,-20.31,118.58,68.0,9.17
keflavik,0,IS,1559173335,70,64.0,-22.56,45.0,10.29
cayenne,75,GF,1559173335,94,4.94,-52.33,77.0,2.24
namatanai,51,PG,1559173335,75,-3.66,152.44,82.12,6.8
husavik,42,CA,1559173336,22,50.56,-96.99,78.01,8.75
dwarka,0,IN,1559173336,35,28.58,77.04,99.0,6.38
ostersund,29,SE,1559173336,92,63.18,14.64,37.4,6.93
balabac,84,PH,1559173337,75,7.99,117.06,85.65,13.24
fairbanks,75,US,1559173278,22,64.84,-147.72,71.01,4.7
barcelos,0,PT,1559173337,72,41.53,-8.62,73.99,3.36
kenai,90,US,1559173338,41,60.55,-151.26,59.0,12.75
muros,0,ES,1559173091,72,42.77,-9.06,71.6,4.7
evensk,99,RU,1559173338,51,61.92,159.24,52.33,5.23
harper,1,US,1559173339,52,30.3,-99.24,89.01,6.93
soyo,81,AO,1559173339,81,-6.13,12.37,77.71,9.04
gubkinskiy,98,RU,1559173339,80,64.43,76.5,33.49,25.57
yeppoon,40,AU,1559173339,64,-23.13,150.74,68.0,4.54
kahului,40,US,1559173206,58,20.89,-156.47,84.99,11.41
dhidhdhoo,100,MV,1559173340,80,6.88,73.1,84.5,15.55
ulladulla,20,AU,1559173340,37,-35.36,150.48,52.0,19.46
kolokani,25,ML,1559173340,20,13.58,-8.03,94.63,3.76
sisimiut,1,GL,1559173341,67,66.94,-53.67,38.96,18.12
coos bay,90,US,1559173341,87,43.37,-124.22,64.0,19.46
sao joao batista,77,BR,1559173341,95,-3.13,-58.38,76.07,1.63
ekibastuz,91,KZ,1559173342,87,51.72,75.32,60.99,10.38
numazu,20,JP,1559173342,64,35.1,138.87,73.0,11.41
laufen,0,CH,1559173342,100,47.42,7.5,51.01,1.12
rozhyshche,100,UA,1559173343,10,50.92,25.27,55.0,1.99
baoying,100,CN,1559173343,61,33.24,119.31,63.02,5.5
arman,100,RU,1559173343,56,59.7,150.17,52.8,7.34
severodvinsk,90,RU,1559173344,93,64.56,39.82,59.0,6.71
homa bay,76,KE,1559173344,68,-0.53,34.45,73.03,8.43
mecca,2,SA,1559173341,28,21.43,39.83,92.87,2.44
zhireken,99,RU,1559173345,70,52.82,117.29,44.65,8.3
yar-sale,97,RU,1559173345,86,66.83,70.83,30.06,21.16
yamada,0,JP,1559173345,37,36.58,137.08,75.99,5.82
bohdan,12,PL,1559173345,83,53.21,23.06,48.0,8.41
butembo,83,CD,1559173346,95,0.12,29.29,62.01,2.86
amot,100,NO,1559173346,92,59.57,7.99,33.21,10.67
waingapu,11,ID,1559173347,72,-9.65,120.26,77.73,16.24
tual,98,ID,1559173348,80,-5.67,132.75,82.45,16.73
palivere,0,EE,1559173348,84,58.97,23.89,44.01,1.99
roald,100,NO,1559173349,86,62.58,6.12,41.0,8.05
saint-georges,50,CA,1559173349,66,46.12,-70.67,57.0,1.99
elko,40,US,1559173349,48,40.83,-115.76,62.6,3.36
saint-joseph,0,FR,1559173350,76,43.56,6.97,62.6,3.36
warrnambool,74,AU,1559173350,59,-38.38,142.48,54.0,7.0
kirakira,100,SB,1559173351,75,-10.46,161.92,83.65,6.78
dingle,49,PH,1559173351,62,11.0,122.67,86.64,7.23
sanford,1,US,1559173182,34,35.48,-79.18,95.0,8.05
bitung,20,ID,1559173352,94,1.44,125.19,77.0,2.24
andros town,40,BS,1559173352,69,24.73,-77.79,82.4,11.41
tucumcari,1,US,1559173353,28,35.17,-103.73,73.4,8.05
chapais,75,CA,1559173353,87,49.78,-74.86,44.6,3.36
kruisfontein,93,ZA,1559173353,76,-34.0,24.73,55.61,7.07
solnechnyy,100,RU,1559173354,92,50.72,136.64,42.34,6.82
torbay,20,CA,1559173354,52,47.66,-52.73,48.0,13.87
chebenki,0,RU,1559173354,67,51.93,55.71,59.0,13.42
yanagawa,0,JP,1559173355,72,33.16,130.41,73.0,4.7
isiro,53,CD,1559173358,90,2.77,27.62,67.79,0.29
tignere,90,CM,1559173358,86,7.37,12.65,69.38,3.51
mnogovershinnyy,100,RU,1559173358,96,53.94,139.92,36.04,13.44
daigo,0,JP,1559173359,44,36.78,140.36,82.99,2.24
kargasok,100,RU,1559173359,86,59.06,80.87,50.12,11.86
ilhabela,49,BR,1559173359,86,-23.78,-45.36,73.79,5.97
upata,95,VE,1559173360,74,8.02,-62.41,82.99,4.0
ocumare del tuy,40,VE,1559173360,69,10.11,-66.78,78.8,3.36
bilibino,3,RU,1559173361,87,68.06,166.44,38.44,1.25
colac,65,AU,1559173361,98,-38.34,143.59,51.01,5.44
honningsvag,100,NO,1559173361,87,70.98,25.97,41.42,28.63
north platte,90,US,1559173178,63,41.12,-100.77,62.01,6.93
krasnyy chikoy,8,RU,1559173362,40,50.36,108.75,48.19,5.68
padalarang,94,ID,1559173362,95,-6.85,107.48,68.96,0.85
kon tum,91,VN,1559173362,92,14.36,108.0,71.84,1.25
camopi,99,GF,1559173363,99,3.17,-52.33,73.95,3.09
east london,2,ZA,1559173167,77,-33.02,27.91,54.53,8.41
kaniama,100,CD,1559173363,60,-7.57,24.18,72.81,4.34
zhigansk,0,RU,1559173363,55,66.77,123.37,44.39,11.97
waitati,7,NZ,1559173364,65,-45.75,170.57,57.0,5.01
alamos,100,AR,1559173364,63,-36.9,-62.36,48.12,10.85
warwick,90,US,1559173265,81,41.7,-71.42,54.0,8.05
voyvozh,0,RU,1559173365,83,62.89,54.96,42.29,4.63
nola,99,CF,1559173365,97,3.52,16.05,70.31,1.95
bay roberts,20,CA,1559173365,52,47.58,-53.28,48.0,13.87
la sarre,32,CA,1559173100,52,48.8,-79.2,51.88,3.6
awbari,4,LY,1559173366,37,26.59,12.77,80.79,7.47
arys,0,KZ,1559173170,67,42.43,68.8,60.8,2.24
iskateley,65,RU,1559173366,85,67.68,53.15,33.16,5.48
druzhba,100,UA,1559173367,80,49.36,25.65,63.0,14.0
calbuco,90,CL,1559173367,93,-41.77,-73.13,46.4,6.93
pelym,0,RU,1559173367,80,61.01,62.0,44.37,5.97
kamaishi,40,JP,1559173368,59,39.28,141.86,64.4,8.05
neu-ulm,0,DE,1559173368,93,48.4,10.01,50.0,1.12
kano,0,NG,1559173368,61,11.99,8.53,82.4,6.93
vila,0,IT,1559173369,87,45.18,8.4,61.0,3.36
gazojak,35,TM,1559173372,41,41.19,61.4,76.56,6.89
bosaso,100,SO,1559173372,70,11.28,49.18,89.18,1.99
praia,0,BR,1559173373,68,-20.25,-43.81,71.6,3.36
pangkalanbuun,95,ID,1559173231,94,-2.68,111.62,77.22,2.13
san cristobal,40,EC,1559173374,77,-0.39,-78.55,60.8,11.41
ndago,99,UG,1559173374,93,-0.97,29.98,62.34,2.19
hajduszovat,75,HU,1559173375,93,47.38,21.48,59.0,10.29
ipilan,61,PH,1559173375,73,8.84,117.9,84.33,3.42
jiwani,0,PK,1559173375,67,25.05,61.74,88.39,13.44
fort nelson,40,CA,1559173376,16,58.81,-122.69,78.8,19.46
gilgit,5,PK,1559173376,39,35.92,74.31,33.79,1.1
nanfeng,82,CN,1559173376,95,27.22,116.52,69.43,2.26
okha,100,RU,1559173377,98,53.59,142.95,34.35,7.58
weiser,1,US,1559173377,38,44.25,-116.97,78.01,3.36
olinda,75,EC,1559173377,78,-2.03,-79.75,80.6,12.75
enshi,100,CN,1559173378,95,30.29,109.48,57.5,1.3
bayji,0,IQ,1559173378,15,34.93,43.49,88.62,8.43
conceicao do araguaia,21,BR,1559173378,69,-8.26,-49.26,77.55,2.15
paciran,84,ID,1559173378,83,-6.9,112.33,76.94,4.52
goderich,0,CA,1559173379,81,43.74,-81.71,61.0,8.01
basoko,96,CD,1559173379,84,1.23,23.61,74.24,2.35
antsirabe,0,MG,1559173380,93,-19.87,47.03,50.62,3.47
sur,0,OM,1559173359,40,22.57,59.53,93.23,13.29
hanstholm,86,DK,1559173380,78,57.12,8.61,48.99,29.1
matara,7,PE,1559173380,77,-13.74,-72.9,38.31,5.53
padang,100,ID,1559173381,73,-0.92,100.36,83.94,5.1
lata,6,IN,1559173381,38,30.78,78.62,32.71,12.3
kangaatsiaq,7,GL,1559173381,73,68.31,-53.46,36.22,12.8
